City_ID,City,Lat,Lng,Max Temp,Humidity,Cloudiness,Wind Speed,Country,Date
0,vodnyy,63.5046,53.4095,37.63,85,90,6.31,RU,1729130090
1,margaret river,-33.95,115.0667,60.78,57,8,9.95,AU,1729130091
2,iqaluit,63.7506,-68.5145,33.53,86,100,16.11,CA,1729130092
3,walvis bay,-22.9575,14.5053,50.95,93,0,6.91,NA,1729130093
4,tuy hoa,13.0833,109.3,83.5,74,96,3.0,VN,1729130094
5,udachny,66.4167,112.4,9.05,92,97,11.1,RU,1729130096
6,bredasdorp,-34.5322,20.0403,56.25,85,10,7.72,ZA,1729130098
7,qaqortoq,60.7167,-46.0333,31.28,54,100,8.68,GL,1729130099
8,saldanha,-33.0117,17.9442,57.25,96,6,7.99,ZA,1729130100
9,el bauga,18.262,33.9081,85.01,23,0,5.82,SD,1729130101
10,port-aux-francais,-49.35,70.2167,35.65,92,97,22.24,TF,1729130102
11,ilulissat,69.2167,-51.1,17.62,62,3,3.44,GL,1729130103
12,bethel,41.3712,-73.414,45.93,70,0,1.99,US,1729130104
13,urucurituba,-2.6833,-57.6667,80.4,65,48,2.91,BR,1729130105
14,grytviken,-54.2811,-36.5092,33.01,84,22,12.71,GS,1729130106
15,adamstown,-25.066,-130.1015,70.2,85,100,18.37,PN,1729130107
16,port elizabeth,-33.918,25.5701,69.31,62,0,4.61,ZA,1729130108
17,hermanus,-34.4187,19.2345,58.8,89,54,10.65,ZA,1729130110
18,dudinka,69.4058,86.1778,14.27,83,100,21.61,RU,1729130111
19,jamestown,42.097,-79.2353,38.84,89,40,5.75,US,1729130112
20,yellowknife,62.456,-114.3525,40.41,100,100,6.91,CA,1729130113
21,rimavska sobota,48.3828,20.0224,37.98,82,7,4.23,SK,1729130114
22,coquimbo,-29.9533,-71.3436,55.13,84,0,3.44,CL,1729130115
23,middelburg,-25.7751,29.4648,52.41,77,0,4.81,ZA,1729130116
24,cumana,10.4635,-64.1775,80.78,81,100,8.57,VE,1729130117
25,sao paulo de olivenca,-3.3783,-68.8725,80.38,65,94,1.3,BR,1729130118
26,ancud,-41.8697,-73.8203,50.68,95,100,12.06,CL,1729130119
27,acarau,-2.8856,-40.12,78.31,79,13,10.4,BR,1729130120
28,remire-montjoly,4.9167,-52.2667,77.04,94,0,2.3,GF,1729130122
29,labytnangi,66.6572,66.4183,26.11,93,61,8.1,RU,1729130123
30,sitka,57.0531,-135.33,48.09,81,100,5.75,US,1729130124
31,punta gorda,26.9298,-82.0454,68.05,73,100,12.66,US,1729130065
32,avarua,-21.2078,-159.775,77.05,61,75,9.22,CK,1729130126
33,huarmey,-10.0681,-78.1522,64.81,83,90,9.06,PE,1729130127
34,raduzhny,62.0961,77.475,31.32,91,100,13.0,RU,1729130128
35,mejit,10.2753,170.8646,83.19,76,100,12.53,MH,1729130129
36,ushuaia,-54.8,-68.3,51.46,54,20,11.5,AR,1729130130
37,albany,42.6001,-73.9662,41.45,67,5,4.85,US,1729130131
38,codrington,-38.2667,141.9667,76.82,59,100,15.46,AU,1729130132
39,alofi,-19.0595,-169.9187,82.29,61,75,11.5,NU,1729130133
40,ha giang,22.8333,104.9833,78.31,89,73,2.48,VN,1729130134
41,kavaratti,10.5669,72.642,80.1,85,100,10.83,IN,1729130136
42,baukau,51.5526,7.2042,64.65,74,100,12.3,DE,1729130137
43,georgetown,5.4112,100.3354,85.95,87,20,2.3,MY,1729130098
44,olonkinbyen,70.9221,-8.7187,34.43,99,100,9.6,SJ,1729130139
45,ljusdal,61.8288,16.0913,42.22,86,100,9.93,SE,1729130140
46,malango,-2.9627,119.9001,80.31,62,100,3.78,ID,1729130141
47,nikolayevsk-on-amure,53.1406,140.73,38.64,47,24,10.56,RU,1729130142
48,fisterra,42.9049,-9.2629,60.84,80,19,11.74,ES,1729130143
49,blackmans bay,-43.0167,147.3167,64.53,75,100,1.01,AU,1729130144
50,stanley,54.868,-1.6985,56.28,97,75,5.75,GB,1729130145
51,klyuchi,52.2667,79.1667,31.82,64,8,0.72,RU,1729130146
52,praia da vitoria,38.7333,-27.0667,64.65,82,20,4.92,PT,1729130147
53,bermeo,43.4209,-2.7215,61.59,89,100,9.86,ES,1729130148
54,badger,64.8,-147.5333,30.45,72,75,13.8,US,1729129968
55,timimoun,29.2639,0.231,75.58,27,0,5.75,DZ,1729130151
56,beichengqu,40.4394,113.1536,54.45,74,100,4.27,CN,1729130152
57,dunedin,-45.8742,170.5036,54.37,69,99,8.75,NZ,1729130153
58,akureyri,65.6835,-18.0878,30.13,93,20,4.61,IS,1729130154
59,sao luis,-2.5297,-44.3028,79.0,83,0,9.22,BR,1729130137
60,hawaiian paradise park,19.5933,-154.9731,80.73,71,20,10.36,US,1729130156
61,otjiwarongo,-20.4637,16.6477,68.52,19,99,9.91,NA,1729130157
62,santiago de cao,-7.9589,-79.2392,62.73,88,75,10.36,PE,1729130158
63,orsa,54.5153,30.4053,35.24,86,22,6.04,BY,1729130159
64,pimentel,-6.8367,-79.9342,62.89,88,75,21.85,PE,1729130160
65,talnakh,69.4865,88.3972,5.47,92,100,12.71,RU,1729130162
66,invercargill,-46.4,168.35,61.02,62,100,8.01,NZ,1729130163
67,isafjordur,66.0755,-23.124,29.98,81,97,8.63,IS,1729130164
68,jinchang,38.4953,102.1739,56.8,57,0,5.88,CN,1729130165
69,nguigmi,14.2495,13.1092,83.03,35,7,6.35,NE,1729130166
70,kerikeri,-35.2268,173.9474,63.91,77,100,8.99,NZ,1729130167
71,kodiak,57.79,-152.4072,51.31,43,0,11.5,US,1729130168
72,tura,25.5198,90.2201,74.91,78,95,2.01,IN,1729130169
73,la ronge,55.1001,-105.2842,48.45,81,100,14.97,CA,1729130170
74,puerto natales,-51.7236,-72.4875,43.41,95,100,2.44,CL,1729130172
75,tidjikja,18.5564,-11.4271,85.17,41,99,7.49,MR,1729130173
76,ta`u,-14.2336,-169.5144,80.15,65,26,11.72,AS,1729130174
77,tiksi,71.6872,128.8694,10.15,86,98,5.26,RU,1729130175
78,edinburgh of the seven seas,-37.0676,-12.3116,54.99,64,39,3.69,SH,1729130176
79,bairnsdale,-37.8333,147.6167,74.05,62,30,5.99,AU,1729130177
80,burang,30.25,81.1667,33.03,65,1,3.49,CN,1729130178
81,fraserburgh,57.6874,-2.0184,54.48,99,100,12.55,GB,1729130180
82,rabo de peixe,37.8,-25.5833,63.99,99,40,8.05,PT,1729130181
83,petrovsk-zabaykal'skiy,51.273,108.843,32.86,62,100,12.77,RU,1729130182
84,waitangi,-43.9535,-176.5597,51.82,79,69,8.99,NZ,1729130183
85,newman,37.3138,-121.0208,71.04,61,1,1.01,US,1729130184
86,thanh hoa,19.8,105.7667,81.16,80,15,4.9,VN,1729130185
87,alotau,-10.3069,150.4462,84.09,74,100,5.37,PG,1729130186
88,nuuk,64.1835,-51.7216,27.21,80,0,5.75,GL,1729130188
89,camalu,30.85,-116.0667,63.48,81,18,4.16,MX,1729130190
90,valle de la pascua,9.2155,-66.0073,75.22,90,99,3.49,VE,1729130192
91,port douglas,-16.4833,145.4667,80.22,74,3,12.15,AU,1729130193
92,porto novo,6.4965,2.6036,80.42,93,100,2.84,BJ,1729130194
93,nova vicosa,-17.8919,-39.3719,75.29,88,100,11.63,BR,1729130195
94,sao jose da coroa grande,-8.8978,-35.1478,75.85,82,85,12.93,BR,1729130196
95,cabo san lucas,22.8909,-109.9124,75.25,74,4,14.32,MX,1729130123
96,kyaikkami,16.08,97.5675,83.01,78,99,3.74,MM,1729130199
97,papatowai,-46.5619,169.4708,57.09,52,95,9.33,NZ,1729130201
98,yuzhno-kurilsk,44.0306,145.8556,57.4,67,46,8.57,RU,1729130203
99,metro,-5.1131,105.3067,85.82,47,94,11.74,ID,1729130204
100,port lincoln,-34.7333,135.8667,66.51,76,98,14.88,AU,1729130205
101,alice springs,-23.7,133.8833,96.35,26,4,23.02,AU,1729130206
102,haiku-pauwela,20.9219,-156.3051,82.42,62,20,28.77,US,1729130207
103,ponta delgada,37.7333,-25.6667,65.19,77,40,8.05,PT,1729130208
104,wailua homesteads,22.0669,-159.378,83.19,77,0,16.11,US,1729130209
105,tuburan,6.6439,122.2736,82.35,73,97,2.44,PH,1729130210
106,yantarnyy,54.8717,19.9381,46.09,68,95,17.16,RU,1729130211
107,demba,-5.51,22.2667,67.84,97,100,1.21,CD,1729130212
108,phan rang-thap cham,11.5667,108.9833,75.76,95,100,2.64,VN,1729130213
109,ponneri,13.3167,80.2,80.04,84,100,4.23,IN,1729130214
110,valparaiso,-33.0393,-71.6273,51.44,93,0,3.44,CL,1729130216
111,punta arenas,-53.15,-70.9167,50.11,76,100,8.05,CL,1729130217
112,hithadhoo,-0.6,73.0833,83.8,72,100,18.32,MV,1729130218
113,sinop,41.7711,34.8709,46.58,90,88,6.42,TR,1729130219
114,nurota,40.5614,65.6886,42.17,47,7,8.05,UZ,1729130220
115,zapolyarnyy,69.4154,30.8136,33.55,91,99,9.95,RU,1729130221
116,prado,-17.3411,-39.2208,73.74,93,100,12.95,BR,1729130222
117,ribeira grande,38.5167,-28.7,62.78,80,17,8.01,PT,1729130223
118,brush,40.2589,-103.6238,65.43,34,0,10.36,US,1729130225
119,howrah,22.5892,88.3103,80.6,94,75,3.44,IN,1729130226
120,lakshmeshwar,15.1333,75.4667,71.62,92,96,6.53,IN,1729130227
121,sierra grande,-41.606,-65.3557,64.65,78,100,16.53,AR,1729130229
122,roma,43.2128,-75.4557,38.66,94,0,0.0,US,1729130230
123,mossel bay,-34.1831,22.146,58.93,62,85,10.09,ZA,1729130231
124,jinghong,21.991,100.7341,73.83,86,26,1.7,CN,1729129945
125,namibe,-15.1961,12.1522,67.12,83,97,8.03,AO,1729130233
126,puerto ayora,-0.7393,-90.3518,67.55,100,76,7.0,EC,1729130234
127,papao,-17.75,-149.55,82.08,69,14,2.89,PF,1729130235
128,whitehorse,60.7161,-135.0538,39.97,65,75,2.3,CA,1729130214
129,touros,-5.1989,-35.4608,76.71,79,98,12.46,BR,1729130239
130,imperatriz,-5.5264,-47.4917,79.39,70,63,3.18,BR,1729129993
131,arraial do cabo,-22.9661,-42.0278,72.16,89,100,12.8,BR,1729130241
132,st. john's,47.5649,-52.7093,45.16,91,75,13.8,CA,1729129978
133,tolanaro,-25.0319,46.9987,66.27,63,75,13.8,MG,1729130243
134,birine,35.635,3.225,68.7,67,79,1.48,DZ,1729130244
135,qusmuryn,52.4503,64.6311,32.81,59,0,5.53,KZ,1729130245
136,crucecita,-28.95,-58.9833,67.15,65,1,8.9,AR,1729130247
137,dinguiraye,11.3,-10.7167,70.5,94,99,0.89,GN,1729130248
138,ajdabiya,30.7554,20.2263,68.9,72,0,8.25,LY,1729130250
139,hammerfest,70.6634,23.6821,45.05,81,100,4.61,NO,1729130251
140,lospalos,-8.5186,127.0025,85.5,46,46,10.45,TL,1729130252
141,sola,-13.8833,167.55,79.86,75,7,2.04,VU,1729130253
142,bermejo,-32.8833,-68.8,78.71,53,20,0.0,AR,1729130254
143,tangalle,6.024,80.7911,80.1,82,90,10.18,LK,1729130255
144,bilibino,68.0546,166.4372,25.95,95,100,3.56,RU,1729130256
145,mindelo,16.8901,-24.9804,78.35,78,20,18.41,CV,1729130257
146,tashir,41.1207,44.2846,48.18,98,100,1.99,AM,1729130258
147,bodaybo,57.8506,114.1933,16.84,66,100,10.74,RU,1729130188
148,new norfolk,-42.7826,147.0587,65.71,48,100,3.0,AU,1729130260
149,flying fish cove,-10.4217,105.6791,80.28,69,75,10.36,CX,1729130261
150,chui,-33.6971,-53.4616,52.83,96,0,4.56,UY,1729130263
151,severo-yeniseyskiy,60.3725,93.0408,6.67,85,64,2.39,RU,1729130265
152,lihue,21.9789,-159.3672,83.79,65,0,16.11,US,1729130266
153,quirinopolis,-18.4483,-50.4517,78.57,60,100,2.08,BR,1729130267
154,wuwei,37.9281,102.6414,57.45,46,0,3.02,CN,1729130268
155,petropavlovsk-kamchatsky,53.0452,158.6483,46.99,46,40,17.9,RU,1729130269
156,liwa,24.5361,56.5656,81.21,73,13,3.02,OM,1729130270
157,bhinmal,25.0,72.25,83.25,65,8,4.56,IN,1729130271
158,thompson,55.7435,-97.8558,46.56,71,100,3.44,CA,1729130119
159,port alfred,-33.5906,26.891,61.18,87,98,13.09,ZA,1729130274
160,nova sintra,14.8667,-24.7167,79.54,79,28,5.95,CV,1729130275
161,gulf shores,30.246,-87.7008,59.02,55,0,0.0,US,1729130161
162,chonchi,-42.6128,-73.8092,51.12,99,100,4.32,CL,1729130277
163,iquitos,-3.7481,-73.2472,78.84,83,0,0.0,PE,1729130278
164,maloye ganyushkino,46.6,49.2667,52.92,54,99,9.78,KZ,1729130279
165,la passe,45.5549,-0.8967,61.25,94,100,7.54,FR,1729130280
166,khandyga,62.6667,135.6,14.74,71,14,3.58,RU,1729130281
167,constantia,44.1833,28.65,43.7,71,7,16.89,RO,1729130282
168,westport,41.1415,-73.3579,47.75,68,0,7.0,US,1729130055
169,usogorsk,63.4106,48.6872,32.23,97,27,4.34,RU,1729130284
170,gangneung,37.7556,128.8961,68.32,62,100,2.1,KR,1729130285
171,atafu village,-8.5421,-172.5159,82.83,72,43,14.16,TK,1729130286
172,keflavik,64.0049,-22.5624,39.63,100,100,3.44,IS,1729130287
173,gazli,40.1333,63.45,42.39,46,10,16.24,UZ,1729130289
174,kirsanov,52.6549,42.7224,39.92,87,100,7.78,RU,1729130291
175,naze,28.3667,129.4833,81.52,83,93,10.0,JP,1729130292
176,laguna,38.421,-121.4238,71.96,63,0,4.61,US,1729130293
177,nizhneudinsk,54.9076,99.0276,23.11,66,81,7.54,RU,1729130269
178,bardai,11.65,7.2333,73.0,54,100,7.38,NG,1729130296
179,rondonopolis,-16.4708,-54.6356,77.23,72,71,2.44,BR,1729130297
180,shiyan,32.6475,110.7781,63.59,97,100,3.58,CN,1729130111
181,vetluzhskiy,58.3902,45.4654,40.24,96,100,3.42,RU,1729130299
182,aldinga beach,-35.2793,138.4604,70.65,68,87,8.93,AU,1729130300
183,kintinku,-5.8833,35.2333,75.56,50,89,6.06,TZ,1729130302
184,sisimiut,66.9395,-53.6735,28.31,67,84,1.45,GL,1729130303
185,kapuskasing,49.4169,-82.4331,42.8,61,75,9.22,CA,1729130304
186,mili,6.0815,171.735,81.59,77,100,7.05,MH,1729130305
187,bel ombre,-4.6167,55.4167,78.64,83,40,2.3,SC,1729130307
188,vydrino,51.485,104.8461,33.6,58,100,19.95,RU,1729130308
189,saipan,15.1355,145.701,84.9,84,75,9.22,MP,1729130167
190,lebu,-37.6167,-73.65,54.25,94,100,15.14,CL,1729130310
191,sechura,-5.5569,-80.8222,64.2,83,10,13.2,PE,1729130312
192,fale old settlement,-9.3852,-171.2468,83.07,72,19,12.91,TK,1729130313
193,fortuna,40.5982,-124.1573,57.92,88,0,6.91,US,1729130314
194,portage,41.1667,-81.1998,45.09,86,100,3.44,US,1729130315
195,trairi,-3.2778,-39.2689,78.22,78,27,10.63,BR,1729130316
196,port macquarie,-31.4333,152.9167,71.08,77,35,4.0,AU,1729130317
197,taoudenni,22.6783,-3.9836,90.39,16,4,10.78,ML,1729130318
198,nar'yan-mar,67.6713,53.087,35.62,97,99,12.35,RU,1729130319
199,crane,31.3974,-102.3501,63.64,44,0,15.5,US,1729130320
200,codo,-4.4553,-43.8856,80.15,69,69,6.55,BR,1729130321
201,tynda,55.1667,124.7167,28.87,60,100,6.38,RU,1729130323
202,bubaque,11.2833,-15.8333,80.82,76,79,3.44,GW,1729130324
203,el calafate,-50.3408,-72.2768,46.17,84,51,7.56,AR,1729130163
204,arsen'yev,44.1631,133.2733,53.15,44,47,1.41,RU,1729130179
205,swift current,50.2834,-107.8014,59.81,47,0,10.36,CA,1729130327
206,mildura,-34.2,142.15,90.66,31,89,24.18,AU,1729130328
207,mount isa,-20.7333,139.5,98.37,23,0,16.11,AU,1729130329
208,ierapetra,35.01,25.7353,71.01,64,9,19.42,GR,1729130330
209,iskateley,67.6803,53.1512,35.49,97,98,12.08,RU,1729130331
210,saint-denis,48.9167,2.3333,65.17,89,75,14.97,FR,1729130235
211,hadibu,12.65,54.0333,77.88,81,74,5.01,YE,1729130335
212,priob'ye,62.5206,65.5964,33.17,76,69,7.38,RU,1729130336
213,labrador city,52.9463,-66.9114,33.19,72,75,69.01,CA,1729130337
214,afaahiti,-17.75,-149.2833,75.2,70,48,1.34,PF,1729130338
215,college,64.8569,-147.8028,30.18,66,75,13.8,US,1729130339
216,oranjemund,-28.55,16.4333,55.31,94,21,2.17,NA,1729130340
217,bonthe,7.5264,-12.505,77.41,89,76,4.94,SL,1729130341
218,tsetserleg,47.475,101.4542,38.8,54,100,4.23,MN,1729130342
219,isla del bosque,22.7333,-105.85,80.74,81,5,5.79,MX,1729130343
220,usinsk,65.9939,57.5281,34.63,92,95,15.79,RU,1729130083
221,gamba,-2.65,10.0,75.99,89,100,5.79,GA,1729130345
222,zhangatas,43.5667,69.75,36.84,76,2,3.2,KZ,1729130346
223,prokuplje,43.2342,21.5881,42.08,75,100,2.35,RS,1729130347
224,okondja,-0.6549,13.6753,68.81,99,85,0.78,GA,1729130349
225,guidel-plage,47.7677,-3.5218,57.52,94,100,4.61,FR,1729130350
226,geraldton,-28.7667,114.6,68.41,68,100,12.66,AU,1729130115
227,lata,40.1629,-8.3327,52.47,92,67,3.31,PT,1729130352
228,ilhabela,-23.7781,-45.3581,69.42,93,17,1.1,BR,1729130353
229,yerofey pavlovich,53.9667,121.9667,29.21,56,100,4.97,RU,1729130354
230,general ramirez,-32.176,-60.2008,65.12,61,2,10.76,AR,1729130120
231,kirakira,-10.4544,161.9205,83.41,78,34,3.27,SB,1729130356
232,dahab,28.501,34.5134,79.27,64,0,10.36,EG,1729130358
233,ulsteinvik,62.3432,5.8487,61.7,69,100,6.08,NO,1729130359
234,east london,-33.0153,27.9116,61.92,78,10,18.43,ZA,1729130119
235,kapa'a,22.0752,-159.319,84.52,77,0,16.11,US,1729130333
236,colares,38.7992,-9.4469,61.32,84,0,20.18,PT,1729130365
237,nouadhibou,20.931,-17.0347,75.18,73,1,17.27,MR,1729130366
238,lompoc,34.6391,-120.4579,63.7,94,100,10.36,US,1729130367
239,sandnessjoen,66.0217,12.6316,49.53,63,100,15.08,NO,1729130368
240,kavieng,-2.5744,150.7967,84.16,73,60,3.49,PG,1729130369
241,tazovsky,67.4667,78.7,27.3,94,100,19.53,RU,1729130372
242,drobeta-turnu severin,44.6319,22.6561,45.86,85,2,2.86,RO,1729130373
243,grand falls-windsor,48.9332,-55.6649,40.5,90,8,5.01,CA,1729130375
244,kaoma,-14.7833,24.8,63.43,79,83,6.24,ZM,1729130376
245,las khorey,11.1595,48.1967,83.79,54,25,1.86,SO,1729130377
246,hamilton,39.1834,-84.5333,48.7,76,75,3.44,US,1729130116
247,el nido,11.1858,119.3956,89.15,79,100,8.39,PH,1729130380
248,anadyr,64.75,177.4833,37.9,69,0,8.01,RU,1729130381
249,aykhal,66.0,111.5,7.29,94,97,13.78,RU,1729130181
250,longyearbyen,78.2186,15.6401,30.04,86,40,3.44,SJ,1729130383
251,carnarvon,-24.8667,113.6333,70.27,61,98,16.71,AU,1729130384
252,hasaki,35.7333,140.8333,73.53,77,98,15.5,JP,1729130167
253,ust-nera,64.5667,143.2,11.46,85,79,5.93,RU,1729130386
254,happy valley-goose bay,53.3168,-60.3315,34.11,86,100,5.75,CA,1729130387
255,tabou,4.423,-7.3528,76.5,89,100,6.49,CI,1729130388
256,argo,37.6333,22.7333,63.82,71,97,4.97,GR,1729130389
257,howard springs,-12.497,131.047,90.88,65,72,6.82,AU,1729130390
258,mil'kovo,55.6078,37.7956,38.34,64,6,6.87,RU,1729130391
259,mount gambier,-37.8333,140.7667,76.08,64,100,8.19,AU,1729130392
260,inarajan village,13.2736,144.7484,85.39,87,89,5.48,GU,1729130394
261,kroya,-7.6331,109.2461,82.83,55,100,9.42,ID,1729130395
262,emerald,-23.5333,148.1667,85.33,47,0,8.21,AU,1729130396
263,nemuro,43.3236,145.575,55.9,73,87,10.6,JP,1729130397
264,nogliki,51.8333,143.1667,40.3,66,100,14.36,RU,1729130398
265,itaituba,-4.2761,-55.9836,76.66,84,71,1.86,BR,1729130399
266,buala,-8.145,159.5921,84.15,76,100,4.99,SB,1729130400
267,rio claro,-22.4114,-47.5614,69.66,80,14,2.24,BR,1729130177
268,tofol,5.3248,163.0078,83.98,74,100,11.5,FM,1729130403
269,constitucion,-35.3333,-72.4167,51.33,91,0,3.2,CL,1729130404
270,kingston,17.997,-76.7936,77.95,89,40,6.91,JM,1729130344
271,nuku'alofa,-21.1333,-175.2,71.94,94,100,13.8,TO,1729130406
272,dampit,-8.2116,112.7493,80.87,55,99,6.42,ID,1729130407
273,prince rupert,54.3161,-130.3201,47.89,87,100,12.66,CA,1729130408
274,nantucket,41.2835,-70.0995,54.14,67,5,14.9,US,1729130409
275,calvinia,-31.4707,19.776,50.85,58,0,4.81,ZA,1729130410
276,fort mcmurray,56.7268,-111.381,45.99,100,100,4.61,CA,1729130411
277,daru,-9.0763,143.2092,85.15,65,60,9.89,PG,1729130412
278,nadym,65.5333,72.5167,32.14,97,100,14.94,RU,1729130413
279,adigrat,14.277,39.462,54.93,49,58,2.73,ET,1729130414
280,shakawe,-18.3667,21.85,72.19,53,5,7.83,BW,1729130415
281,salalah,17.0151,54.0924,78.62,88,100,4.45,OM,1729130418
282,hami,42.8,93.45,61.16,30,99,6.91,CN,1729130419
283,margate,51.3813,1.3862,60.87,91,100,10.33,GB,1729130187
284,antonio enes,-16.2325,39.9086,73.6,78,95,14.34,MZ,1729130421
285,krasnik,50.9236,22.2271,39.52,72,12,10.6,PL,1729130334
286,acapulco de juarez,16.8634,-99.8901,76.6,86,31,7.99,MX,1729130192
287,goundam,16.4145,-3.6708,92.23,21,58,5.21,ML,1729130424
288,zhanaozen,43.3,52.8,50.09,34,91,15.17,KZ,1729130425
289,rio grande,-32.035,-52.0986,59.81,89,0,8.39,BR,1729130426
290,enewetak,11.3474,162.3373,83.82,76,100,16.33,MH,1729130427
291,xiaoweizhai,26.1903,107.5125,71.02,87,94,7.83,CN,1729130428
292,aasiaat,68.7098,-52.8699,11.57,82,7,9.48,GL,1729130429
293,durant,33.994,-96.3708,53.04,40,0,0.0,US,1729130431
294,paita,-5.0892,-81.1144,63.7,85,14,10.63,PE,1729130147
295,san patricio,28.017,-97.5169,69.75,59,6,14.18,US,1729130433
296,tshela,-4.9833,12.9333,73.08,96,100,2.04,CD,1729130434
297,forster,-32.1667,152.5167,69.39,80,0,9.31,AU,1729130435
298,rongelap,11.1635,166.8941,83.3,77,100,11.86,MH,1729130436
299,okhotsk,59.3833,143.3,27.41,41,95,24.72,RU,1729130437
300,villa bruzual,9.3328,-69.1208,77.59,83,100,1.28,VE,1729130438
301,tyuratam,45.6507,63.3156,40.66,73,60,4.52,KZ,1729130439
302,cidade velha,14.9167,-23.6167,79.27,83,75,9.22,CV,1729130440
303,mirny,62.5353,113.9611,9.14,77,95,7.7,RU,1729130441
304,akobo,7.4344,3.9497,71.65,98,100,2.48,NG,1729130442
305,richlands,37.0932,-81.7937,33.21,78,5,2.28,US,1729130443
306,champerico,14.3,-91.9167,81.46,75,0,2.53,GT,1729130444
307,darnah,32.767,22.6367,70.77,73,0,6.04,LY,1729130446
308,gadzhiyevo,69.2551,33.3362,34.7,92,65,11.21,RU,1729130448
309,port mathurin,-19.6833,63.4167,73.6,79,98,10.78,MU,1729130450
310,nueva guinea,11.6876,-84.4562,74.32,93,97,3.67,NI,1729130451
311,nueva concepcion,14.2,-91.3,76.46,91,14,2.95,GT,1729130452
312,haapsalu,58.9431,23.5414,47.01,90,100,12.8,EE,1729130454
313,puerto ayacucho,5.6639,-67.6236,75.99,90,23,4.14,VE,1729130455
314,al qubbah,32.7616,22.2424,60.01,87,0,5.7,LY,1729130457
315,pemba,-12.974,40.5178,77.7,94,75,15.59,MZ,1729130458
316,copala,16.65,-98.9833,78.8,89,35,6.62,MX,1729130459
317,alaghsas,17.0187,8.0168,84.24,14,7,7.29,NE,1729130460
318,nanning,22.8167,108.3167,77.45,69,43,9.04,CN,1729130462
319,el sauzal de rodriguez,31.9,-116.6833,63.41,80,7,3.87,MX,1729130463
320,lorengau,-2.0226,147.2712,85.64,69,64,3.76,PG,1729130464
321,bamboo flat,11.7,92.7167,80.69,89,40,2.3,IN,1729130465
322,utrik,11.2278,169.8474,83.55,77,95,14.23,MH,1729130467
323,omutinskiy,56.4745,67.6709,29.03,84,5,6.51,RU,1729130468
324,west island,-12.1568,96.8225,80.58,78,20,12.66,CC,1729130469
325,hanamaki,39.3833,141.1167,59.2,88,20,1.14,JP,1729130470
326,la sarre,48.8002,-79.1996,35.73,69,33,7.07,CA,1729130342
327,castillos,-34.1667,-53.8333,50.61,98,8,4.03,UY,1729130472
328,boyolangu,-8.1181,111.8935,82.85,53,100,9.75,ID,1729130473
329,al kharj,24.155,47.3346,73.98,28,13,2.57,SA,1729130474
330,paredon,16.0333,-93.8667,80.46,72,1,14.0,MX,1729130476
331,morondava,-20.2833,44.2833,71.96,62,64,9.24,MG,1729130477
332,isangel,-19.55,169.2667,82.51,65,75,13.8,VU,1729130478
333,ihosy,-22.4,46.1167,59.27,86,72,7.87,MG,1729130479
334,sakaiminato,35.55,133.2333,75.18,78,40,12.66,JP,1729130480
335,kununurra,-15.7667,128.7333,93.18,49,1,4.61,AU,1729130481
336,dakhla,23.6848,-15.958,70.29,93,100,13.51,EH,1729130482
337,domene,45.2034,5.8391,68.43,100,99,3.2,FR,1729130483
338,monkey bay,-14.0728,34.9201,70.61,77,86,16.51,MW,1729130484
339,quezon,7.7303,125.0989,84.36,68,74,1.86,PH,1729130487
340,swakopmund,-22.6833,14.5333,54.99,84,1,1.01,NA,1729130488
341,arta,39.1606,20.9853,67.69,59,71,5.39,GR,1729130490
342,pauini,-7.7136,-66.9764,74.44,77,100,1.52,BR,1729130491
343,kayangel,8.0823,134.7173,84.96,71,59,7.16,PW,1729130493
344,vilyuysk,63.7553,121.6247,20.12,88,100,7.14,RU,1729130494
345,minas de marcona,-15.2119,-75.1103,55.33,82,22,10.4,PE,1729130496
346,fort riley north,39.1108,-96.8139,48.81,45,0,10.45,US,1729130498
347,hadithah,34.1397,42.3781,77.94,32,0,5.77,IQ,1729130499
348,puerto baquerizo moreno,-0.9,-89.6,69.24,86,90,12.08,EC,1729130500
349,tromso,69.6496,18.957,48.22,71,75,13.8,NO,1729130501
350,enoch,37.7733,-113.0244,63.14,34,84,1.99,US,1729130502
351,hilo,19.7297,-155.09,81.95,71,71,8.5,US,1729130504
352,sovetskaya gavan',48.9723,140.2878,50.16,37,8,11.74,RU,1729130408
353,san luis de la loma,17.2706,-100.8939,80.38,88,100,5.55,MX,1729130506
354,vilyuchinsk,52.9306,158.4028,48.47,64,66,10.29,RU,1729130507
355,gaigeturi,33.4644,126.3183,73.45,78,75,19.57,KR,1729130508
356,tataouine,32.9297,10.4518,72.48,58,16,3.42,TN,1729130509
357,parambu,-6.2111,-40.6944,80.29,50,93,4.25,BR,1729130510
358,vernon,50.2581,-119.2691,53.13,41,100,5.01,CA,1729130511
359,altamont,42.2068,-121.7372,49.89,76,5,5.99,US,1729130512
360,seven pagodas,12.6264,80.1722,79.59,82,89,7.27,IN,1729130513
361,egilsstadir,65.2653,-14.3948,33.71,100,100,3.44,IS,1729130514
362,kyjov,49.0102,17.1225,51.57,71,14,17.45,CZ,1729130382
363,kristiansund,63.1115,7.732,59.65,41,100,9.22,NO,1729130516
364,rada tilly,-45.9333,-67.5333,48.69,87,0,5.75,AR,1729130517
365,lib,8.3122,167.3766,82.83,74,100,17.25,MH,1729130519
366,bac lieu,9.285,105.7244,79.92,85,100,1.07,VN,1729130520
367,murashi,59.3999,48.9615,38.01,90,100,1.77,RU,1729130521
368,novoorsk,51.381,58.9813,35.42,45,100,6.87,RU,1729130522
369,slave lake,55.2834,-114.769,46.38,87,100,8.05,CA,1729130328
370,kendari,-3.945,122.4989,87.98,52,100,2.3,ID,1729130524
371,apolinario saravia,-24.4328,-63.9954,77.41,75,87,5.26,AR,1729130525
372,itarantim,-15.6597,-40.0656,70.68,96,100,2.91,BR,1729130526
373,rach gia,10.0167,105.0833,81.64,78,100,3.62,VN,1729130527
374,san antonio de pale,-1.4014,5.6325,76.57,83,100,13.76,GQ,1729130528
375,pingxiang,27.6167,113.85,76.5,77,94,3.47,CN,1729130529
376,saint-felix-de-valois,46.1668,-73.4324,34.05,86,4,5.01,CA,1729130530
377,pariaman,-0.619,100.12,82.45,71,100,0.83,ID,1729130531
378,pacific grove,36.6177,-121.9166,63.43,89,0,1.01,US,1729130532
379,wewak,-3.5534,143.6268,87.31,60,37,4.7,PG,1729130534
380,uturoa,-16.7333,-151.4333,77.54,70,7,3.74,PF,1729130536
381,thinadhoo,0.5333,72.9333,83.01,76,40,15.17,MV,1729130537
382,vorgashor,67.5833,63.95,31.21,98,100,13.91,RU,1729130538
383,gizo,-8.103,156.8419,83.84,76,85,8.88,SB,1729130539
384,rengasdengklok,-6.1592,107.2981,87.93,54,97,0.38,ID,1729130533
385,banda aceh,5.5577,95.3222,82.69,75,100,11.72,ID,1729130541
386,lobito,-12.3481,13.5456,75.02,78,98,5.5,AO,1729130542
387,colonia,50.9333,6.95,60.94,80,0,14.97,DE,1729130357
388,colonia menno,-22.3667,-59.8167,87.76,41,96,8.75,PY,1729130544
389,port-gentil,-0.7193,8.7815,77.9,82,100,11.92,GA,1729130546
390,mhamid,29.82,-5.72,74.25,43,100,6.64,MA,1729130548
391,zharkent,44.1628,80.0,40.05,94,100,5.14,KZ,1729130549
392,george town,5.4112,100.3354,85.95,87,20,2.3,MY,1729130493
393,khilok,51.3674,110.4676,32.41,60,100,13.89,RU,1729130551
394,madras,13.0878,80.2785,81.23,93,40,4.0,IN,1729130378
395,onchan,54.1733,-4.4532,55.9,96,100,9.66,IM,1729130553
396,luderitz,-26.6481,15.1594,53.96,94,0,8.05,NA,1729130554
397,pont rouge,48.8833,-72.0825,34.63,78,15,6.76,CA,1729130556
398,ostersund,63.1792,14.6357,43.25,77,40,18.41,SE,1729130557
399,bowral,-34.4667,150.4167,73.09,35,9,4.76,AU,1729130559
400,cockburn town,21.4612,-71.1419,84.79,69,10,18.86,TC,1729130560
401,lucapa,-8.4192,20.7447,64.99,97,100,1.88,AO,1729130561
402,nagqu,31.5,92.0,38.35,33,100,15.55,CN,1729130562
403,kiruna,67.8557,20.2251,32.92,93,100,6.91,SE,1729130563
404,bonnyville,54.2668,-110.735,44.19,77,95,7.74,CA,1729130564
405,carahue,-38.7,-73.1667,53.29,96,100,2.89,CL,1729130565
406,north bend,43.4065,-124.2243,59.25,100,75,4.61,US,1729130566
407,luanda,-8.8368,13.2343,75.2,88,75,5.75,AO,1729130442
408,masvingo,-20.0637,30.8277,53.13,80,23,6.46,ZW,1729130568
409,lerwick,60.1545,-1.1494,52.74,98,100,21.92,GB,1729130570
410,opuwo,-18.0607,13.84,65.66,41,18,4.65,NA,1729130571
411,zagora,30.3484,-5.8365,71.71,50,100,5.32,MA,1729130572
412,guider,9.9342,13.9486,74.95,75,100,2.55,CM,1729130573
413,sao felix do xingu,-6.6447,-51.995,72.1,91,14,0.98,BR,1729130548
414,kamoke,31.9744,74.2244,70.21,55,0,6.87,PK,1729130575
415,nea alikarnassos,35.3333,25.1667,71.28,68,20,18.41,GR,1729130576
416,san pedro,14.35,121.0167,86.32,76,75,5.75,PH,1729130282
417,tralee,52.2704,-9.7026,53.94,92,74,4.92,IE,1729130578
418,bridgewater,44.3835,-64.5155,44.28,84,24,18.41,CA,1729130579
419,la'ie,21.6477,-157.9253,83.05,69,46,8.99,US,1729130580
420,murmashi,68.8154,32.8115,34.21,100,75,2.24,RU,1729130581
421,bra,44.703,7.8556,57.61,97,100,3.58,IT,1729130582
422,smithers,54.7804,-127.1743,46.72,57,75,3.44,CA,1729130584
423,polyarnyy,69.1989,33.4478,35.08,91,70,10.67,RU,1729130585
424,cidreira,-30.1811,-50.2056,62.55,83,0,2.91,BR,1729130586
425,katsuren-haebaru,26.3369,127.8719,86.4,76,75,8.05,JP,1729130587
426,lazaro cardenas,17.9583,-102.2,79.79,88,19,2.64,MX,1729130588
427,debark',13.1561,37.8981,50.88,73,20,3.67,ET,1729130589
428,afif,23.9065,42.9172,69.3,25,3,7.43,SA,1729130590
429,zouerate,22.7187,-12.4521,83.23,26,98,10.78,MR,1729130591
430,jega,12.2175,4.3792,80.96,59,71,6.53,NG,1729130592
431,kismayo,-0.3582,42.5454,77.58,81,11,14.0,SO,1729130593
432,mikuni,36.2171,136.1519,70.83,78,69,12.84,JP,1729130594
433,bushehr,28.9684,50.8385,71.69,78,0,0.0,IR,1729130595
434,khash,28.2211,61.2158,62.6,26,0,1.97,IR,1729130597
435,richfield,44.8833,-93.283,53.85,37,20,13.8,US,1729130598
436,chibougamau,49.9168,-74.3659,35.22,87,20,5.75,CA,1729130529
437,waingapu,-9.6567,120.2641,86.81,58,13,6.96,ID,1729130600
438,kourou,5.1552,-52.6478,79.27,83,74,5.26,GF,1729130601
439,jwaneng,-24.6004,24.7303,59.41,65,47,16.2,BW,1729130602
440,murghob,38.1702,73.9667,29.64,48,2,8.34,TJ,1729130603
441,guinticgan,11.5641,123.1236,84.33,73,92,8.5,PH,1729130604
442,almeirim,-1.5233,-52.5817,79.34,67,50,3.02,BR,1729130605
443,tsiombe,-25.3,45.4833,62.58,62,100,7.92,MG,1729130606
444,parapat,2.663,98.9349,73.17,83,98,1.81,ID,1729130607
445,aqadyr,48.2553,72.8483,33.51,80,12,4.56,KZ,1729130608
446,saint-louis,16.3333,-15.0,78.8,74,100,7.76,SN,1729130609
447,bengkulu,-3.8004,102.2655,81.5,71,100,6.11,ID,1729130498
448,lijiang,26.8688,100.2207,55.96,74,2,2.84,CN,1729130612
449,maputo,-25.9653,32.5892,61.23,77,20,5.99,MZ,1729130577
450,vadso,70.0744,29.7487,33.96,93,100,4.61,NO,1729130614
451,kongsvinger,60.1905,11.9977,36.99,98,70,4.38,NO,1729130615
452,ambon,-3.6954,128.1814,86.14,74,40,4.61,ID,1729130616
453,taksimo,56.3444,114.8794,25.9,81,100,3.6,RU,1729130617
454,saint-philippe,-21.3585,55.7679,72.61,81,35,5.08,RE,1729130618
455,illizi,26.4833,8.4667,81.79,26,8,9.82,DZ,1729130619
456,valozhyn,54.0909,26.5225,36.1,85,9,1.16,BY,1729130620
457,gao,16.6362,1.637,88.05,19,4,5.32,ML,1729130533
458,puerto cortez,15.8333,-87.95,78.1,85,6,5.21,HN,1729130622
459,batroun,34.2553,35.6581,73.53,74,51,12.01,LB,1729130624
460,gwanda,-20.9333,29.0,53.76,83,0,6.76,ZW,1729130625
461,portland,45.5234,-122.6762,57.18,72,0,3.44,US,1729130626
462,kutum,14.2,24.6667,76.19,29,44,6.29,SD,1729130627
463,albertina,-22.2008,-46.6158,65.59,85,94,5.35,BR,1729130629
464,olyokminsk,60.3736,120.4264,19.09,83,100,12.46,RU,1729130630
465,nelidovo,56.2211,32.7774,37.65,88,99,2.8,RU,1729130631
466,goroka,-6.0834,145.3873,74.88,71,50,4.68,PG,1729130632
467,kamina,-8.7386,24.9906,66.94,90,99,3.22,CD,1729130633
468,envira,-7.3,-70.2167,78.62,64,66,2.51,BR,1729130581
469,timbuktu,16.7735,-3.0074,91.45,20,4,7.18,ML,1729130637
470,tarinkot,32.6268,65.8733,61.72,23,0,4.21,AF,1729130638
471,nasiriyah,31.0521,46.261,82.53,20,6,3.02,IQ,1729130639
472,camas,37.402,-6.0331,62.04,92,42,5.01,ES,1729130640
473,marion,39.7684,-86.1555,43.34,80,6,4.99,US,1729130642
474,tirhanimine,35.2362,-3.9545,64.29,88,40,3.44,MA,1729130643
475,villa gesell,-37.2639,-56.973,53.33,97,100,16.04,AR,1729130644
476,yingkou,40.6648,122.2283,63.05,65,78,10.69,CN,1729130645
477,vertientes,21.2594,-78.1464,75.0,89,99,3.74,CU,1729130646
478,lincheng,19.9078,109.6858,82.92,75,99,10.94,CN,1729130520
479,sao vicente,-23.9631,-46.3919,72.95,26,0,5.01,BR,1729130648
480,yanam,16.7333,82.2167,79.74,93,100,6.78,IN,1729130649
481,xai-xai,-25.0519,33.6442,65.21,74,86,3.67,MZ,1729130650
482,fort st. john,56.2499,-120.8529,44.49,53,75,13.8,CA,1729130651
483,petrosino,37.7077,12.4999,71.92,80,93,20.87,IT,1729130652
484,ghat,24.9647,10.1728,79.41,23,97,4.18,LY,1729130654
485,ocean shores,46.9737,-124.1563,53.02,86,100,10.36,US,1729130655
486,sosnovka,56.255,51.2842,38.39,86,100,1.48,RU,1729130656
487,san jose del cabo,23.0589,-109.6977,83.48,61,0,3.44,MX,1729130657
488,road town,18.4167,-64.6167,84.24,74,40,9.22,VG,1729130658
489,nizhniy kuranakh,58.8353,125.4869,29.23,53,100,5.01,RU,1729130659
490,kirksville,40.1948,-92.5833,41.59,68,0,3.44,US,1729130661
491,santa sylvina,-27.8326,-61.1375,71.06,61,12,11.16,AR,1729130662
492,misratah,32.3754,15.0925,73.53,74,0,7.27,LY,1729130663
493,mount pearl,47.5166,-52.7813,44.33,92,75,13.8,CA,1729130664
494,souillac,-20.5167,57.5167,68.38,94,40,3.44,MU,1729130665
495,berezovyy,51.6667,135.7,42.44,33,1,12.1,RU,1729130666
496,mandal,25.45,74.5667,74.23,45,4,5.77,IN,1729130668
497,susanville,40.4163,-120.653,49.82,86,21,4.03,US,1729130669
498,naracoorte,-36.9579,140.7383,79.09,50,100,14.23,AU,1729130670
499,grande prairie,55.1667,-118.8027,44.78,57,75,16.11,CA,1729130466
500,antsiranana,-12.2787,49.2917,71.19,91,57,4.09,MG,1729130672
501,kyshtovka,56.555,76.6271,30.47,90,7,3.6,RU,1729130674
502,kanoya,31.3833,130.85,80.11,75,100,4.47,JP,1729130675
503,bathsheba,13.2167,-59.5167,83.01,83,20,6.91,BB,1729130676
504,kailua-kona,19.6406,-155.9956,84.56,74,40,8.05,US,1729130677
505,doba,8.65,16.85,71.28,93,87,2.15,TD,1729130679
506,villafranca tirrena,38.2401,15.4374,73.65,69,97,11.97,IT,1729130680
507,harrisonville,38.6533,-94.3488,42.58,61,0,0.0,US,1729130576
508,nakonde,-9.3421,32.745,62.85,86,84,7.52,ZM,1729130682
509,eisenach,50.9833,10.3167,53.62,78,97,4.14,DE,1729130535
510,wundanyi,-3.4019,38.364,58.86,85,28,5.46,KE,1729130684
511,idri,27.5,13.2667,70.93,42,0,7.07,LY,1729130685
512,patterson,37.4716,-121.1297,71.55,65,1,3.42,US,1729130687
513,khulm,36.6974,67.6983,57.06,30,3,1.36,AF,1729130688
514,suphan buri,14.4742,100.1222,84.45,77,17,1.59,TH,1729130689
515,sanctuary point,-35.1114,150.629,68.45,62,39,13.82,AU,1729130690
516,tateyama,34.9833,139.8667,75.92,78,31,10.94,JP,1729130691
517,okakarara,-20.5833,17.4333,65.91,21,43,7.27,NA,1729130692
518,tazacorte,28.629,-17.9293,71.15,74,20,11.99,ES,1729130694
519,chela,34.069,104.4619,49.86,71,10,1.5,CN,1729130696
520,angaur state,6.906,134.13,85.06,68,5,7.23,PW,1729130697
521,kouroussa,10.65,-9.8833,71.76,95,100,1.12,GN,1729130698
522,mar del plata,-38.0023,-57.5575,55.42,97,100,15.01,AR,1729130699
523,kiunga,-6.1219,141.2906,85.08,69,99,3.47,PG,1729130700
524,boa vista,2.8197,-60.6733,82.38,69,20,8.05,BR,1729130523
525,arawa,-6.2132,155.5367,84.25,81,100,3.6,PG,1729130702
526,porto feliz,-23.2147,-47.5239,67.17,85,13,8.16,BR,1729130703
527,piti village,13.4626,144.6933,86.05,86,84,4.79,GU,1729130704
528,qarazhal,48.0078,70.7903,35.85,77,7,2.55,KZ,1729130705
529,karratha,-20.7377,116.8463,77.76,28,0,12.39,AU,1729130707
530,luwuk,-0.9516,122.7875,84.2,60,88,6.58,ID,1729130708
531,chapeco,-27.0964,-52.6183,67.75,83,0,6.91,BR,1729130572
532,midvagur,62.0511,-7.1939,50.83,100,100,3.44,FO,1729130710
533,ridder,50.355,83.5133,35.19,80,5,3.11,KZ,1729130711
534,galesong,-5.3166,119.3661,86.5,61,100,8.34,ID,1729130712
535,galliano,29.4422,-90.2992,64.4,34,0,10.36,US,1729130713
536,pacocha,-17.5833,-71.3333,61.11,90,18,4.34,PE,1729130714
537,xilin hot,43.9667,116.0333,45.66,70,100,2.77,CN,1729130715
538,new plymouth,-39.0667,174.0833,64.81,100,100,6.08,NZ,1729130716
539,montepuez,-13.1256,38.9997,69.58,77,100,8.25,MZ,1729130717
540,beyneu,45.3167,55.2,44.64,49,84,12.62,KZ,1729130718
541,arkhara,49.4212,130.0842,41.36,45,0,6.35,RU,1729130719
542,adjumani,3.3779,31.7909,67.51,96,100,1.81,UG,1729130720
543,justo daract,-33.8594,-65.1828,72.23,53,17,17.72,AR,1729130722
544,puerto cabezas,14.0351,-83.3888,75.65,92,28,5.37,NI,1729130702
545,cukai,4.25,103.4167,82.0,78,70,5.44,MY,1729130724
546,vangaindrano,-23.35,47.6,66.13,71,100,10.07,MG,1729130725
547,lashio,22.9333,97.75,69.67,84,23,0.81,MM,1729130726
548,vila franca do campo,37.7167,-25.4333,64.89,99,100,4.27,PT,1729130727
549,puerto santa,-8.9906,-78.6456,62.17,89,17,8.28,PE,1729130729
550,dryden,49.7833,-92.7503,50.29,46,20,6.91,CA,1729130731
551,pago pago,-14.2781,-170.7025,86.99,62,75,11.5,AS,1729130732
552,inirida,3.8653,-67.9239,74.1,93,7,3.42,CO,1729130734
553,ampanihy,-24.7,44.75,58.98,63,62,10.11,MG,1729130735
554,broken hill,-31.95,141.4333,88.72,27,100,21.94,AU,1729130736
555,sohna,28.25,77.0667,73.65,47,26,3.87,IN,1729130737
556,ibshaway,29.358,30.6814,70.7,72,0,6.15,EG,1729130440
557,tarawa,1.419,172.984,87.89,74,40,8.05,KI,1729130740
558,odda,60.0691,6.5457,40.87,93,89,10.63,NO,1729130741
559,mercedes,-34.6515,-59.4307,62.78,73,80,10.09,AR,1729130742
560,auki,-8.7676,160.7034,84.09,76,99,1.48,SB,1729130743
